{"id": "0x9930c6300a591f0x9cddfe7712cbf8", "name": "Mara Palace Hotel", "address": "Centro", "city_province": "Vassouras - RJ", "zip_code": "27700-000", "type": ["Hotel"], "longitude": -43.659494699999996, "latitude": -22.410300299999996, "phone": "+55 24 98839-8325", "link": "https://www.google.com/maps/place/Mara+Palace+Hotel/data=!4m2!3m1!1s0x9930c6300a591f:0x9cddfe7712cbf8!10m1!1e1", "datetime": "2024-03-25 22:38:25"}
{"id": "0x993156add5d3f70x99f1dd48d9bb01ff", "name": "Bliss Hotel Vassouras", "address": "Praça Provedor Felix Machado, 18 - Madruga", "city_province": "Vassouras - RJ", "zip_code": "27700-000", "type": ["Hotel"], "longitude": -43.65600579999999, "latitude": -22.398120799999997, "phone": "+55 24 2491-8002", "link": "https://www.google.com/maps/place/Bliss+Hotel+Vassouras/data=!4m2!3m1!1s0x993156add5d3f7:0x99f1dd48d9bb01ff!10m1!1e1", "datetime": "2024-03-25 22:38:31"}
{"id": "0x9930c65b1d140f0x9ccf56eb282a0383", "name": "Vila Hibisco Pousada e Apart", "address": "R. Abreu César, 55 - Centro", "city_province": "Vassouras - RJ", "zip_code": "27700-000", "type": ["Hotel"], "longitude": -43.66001, "latitude": -22.4089468, "phone": "+55 24 2471-3356", "link": "https://www.google.com/maps/place/Vila+Hibisco+Pousada+e+Apart/data=!4m2!3m1!1s0x9930c65b1d140f:0x9ccf56eb282a0383!10m1!1e1", "datetime": "2024-03-25 22:38:36"}
{"id": "0x993184e78e01b70x3eeaecefd8598cb0", "name": "Hotel Princesinha do Café", "address": "R. Barão de Vassouras, 82 - Centro", "city_province": "Vassouras - RJ", "zip_code": "27700-000", "type": ["Hospedagem domiciliar"], "longitude": -43.660331299999996, "latitude": -22.410089100000004, "phone": "+55 24 99261-6468", "link": "https://www.google.com/maps/place/Hotel+Princesinha+do+Caf%C3%A9/data=!4m2!3m1!1s0x993184e78e01b7:0x3eeaecefd8598cb0!10m1!1e1", "datetime": "2024-03-25 22:38:42"}
{"id": "0x9930c22cb527430xb08827041d1ed32", "name": "Pousada Vale das Palmeiras", "address": "R. Galeno Gomes, 35 - Centro", "city_province": "Vassouras - RJ", "zip_code": "27700-000", "type": ["Pousada"], "longitude": -43.66181199999999, "latitude": -22.403136, "phone": "+55 24 2230-0969", "link": "https://www.google.com/maps/place/Pousada+Vale+das+Palmeiras/data=!4m2!3m1!1s0x9930c22cb52743:0xb08827041d1ed32!10m1!1e1", "datetime": "2024-03-25 22:38:49"}
{"id": "0x9930ea611155c90x38213267b07af6b8", "name": "Hotel Gramado da Serra", "address": "R. Aldo Cavali, 07 - Centro", "city_province": "Vassouras - RJ", "zip_code": "27700-000", "type": ["Hotel"], "longitude": -43.656492899999996, "latitude": -22.4029676, "phone": "+55 24 2471-2314", "link": "https://www.google.com/maps/place/Hotel+Gramado+da+Serra/data=!4m2!3m1!1s0x9930ea611155c9:0x38213267b07af6b8!10m1!1e1", "datetime": "2024-03-25 22:38:55"}
{"id": "0x9930d0821d6bd90xfbe0e6443ce83681", "name": "Hotel Santa Amália", "address": "Av. Sebastião Manoel Furtado, 526 - Santa Amalia", "city_province": "Vassouras - RJ", "zip_code": "27700-000", "type": ["Hotel"], "longitude": -43.668959099999995, "latitude": -22.4070114, "phone": "+55 24 2471-1200", "link": "https://www.google.com/maps/place/Hotel+Santa+Am%C3%A1lia/data=!4m2!3m1!1s0x9930d0821d6bd9:0xfbe0e6443ce83681!10m1!1e1", "datetime": "2024-03-25 22:39:01"}
{"id": "0x99317a1b9a3b650x6d1e95f0c4b37354", "name": "Pousada Pomar de Vassouras", "address": "R. Antenor Caravana, 578 - Madruga", "city_province": "Vassouras - RJ", "zip_code": "27700-000", "type": ["Pousada"], "longitude": -43.6589673, "latitude": -22.392930099999997, "phone": "+55 24 99944-1569", "link": "https://www.google.com/maps/place/Pousada+Pomar+de+Vassouras/data=!4m2!3m1!1s0x99317a1b9a3b65:0x6d1e95f0c4b37354!10m1!1e1", "datetime": "2024-03-25 22:39:07"}
{"id": "0x9931816ce1b12b0x103ed1e9336fff79", "name": "Espaço Luz Helga Ferreira", "address": "R. Serra Grande, 352 - Melo Afonso", "city_province": "Vassouras - RJ", "zip_code": "27700-000", "type": ["Hospedagem domiciliar", "Spa de saúde", "Escola"], "longitude": -43.6625413, "latitude": -22.4153128, "phone": "+55 24 99266-4556", "link": "https://www.google.com/maps/place/Espa%C3%A7o+Luz+Helga+Ferreira/data=!4m2!3m1!1s0x9931816ce1b12b:0x103ed1e9336fff79!10m1!1e1", "datetime": "2024-03-25 22:39:12"}
{"id": "0x9930c38ffa83230x4cf7b854f561b421", "name": "Fazenda Santo Antônio", "address": "Estrada Joao Ternura 1841 acesso a 2 km do centro de Vassouras morro da vaca", "city_province": "Vassouras - RJ", "zip_code": "27700-000", "type": ["Acampamento de pesca", "Cama e café", "Restaurante"], "longitude": -43.660323999999996, "latitude": -22.4326038, "phone": "+55 24 2471-2503", "link": "https://www.google.com/maps/place/Fazenda+Santo+Ant%C3%B4nio/data=!4m2!3m1!1s0x9930c38ffa8323:0x4cf7b854f561b421!10m1!1e1", "datetime": "2024-03-25 22:39:18"}
{"id": "0x9930cf840e41210x436917cb755c30c8", "name": "Pousada Colina Verde", "address": "Rua Visconde de Araxá, 195 - Centro", "city_province": "Vassouras - RJ", "zip_code": "27700-000", "type": ["Pousada"], "longitude": -43.6656799, "latitude": -22.4100475, "phone": "+55 24 2110-0076", "link": "https://www.google.com/maps/place/Pousada+Colina+Verde/data=!4m2!3m1!1s0x9930cf840e4121:0x436917cb755c30c8!10m1!1e1", "datetime": "2024-03-25 22:39:24"}
{"id": "0x993092e24dba5f0x414092c3e27f0054", "name": "MANSÃO RESIDENCE Hospedaria e Eventos", "address": "R. José do Patrocínio, 74 - Carvalheira", "city_province": "Vassouras - RJ", "zip_code": "27700-000", "type": ["Hotel", "Hospedaria"], "longitude": -43.6547117, "latitude": -22.395871099999997, "phone": "+55 24 2491-1357", "link": "https://www.google.com/maps/place/MANS%C3%83O+RESIDENCE+Hospedaria+e+Eventos/data=!4m2!3m1!1s0x993092e24dba5f:0x414092c3e27f0054!10m1!1e1", "datetime": "2024-03-25 22:39:30"}
{"id": "0x99311d4902fded0x51be2a1c1c1987e7", "name": "Pousada D'Alicia", "address": "Av. Marechal Paulo Torres, 25 - Centro", "city_province": "Vassouras - RJ", "zip_code": "27700-000", "type": ["Cama e café"], "longitude": -43.66422089999999, "latitude": -22.404245, "phone": "+55 24 98826-9632", "link": "https://www.google.com/maps/place/Pousada+D'Alicia/data=!4m2!3m1!1s0x99311d4902fded:0x51be2a1c1c1987e7!10m1!1e1", "datetime": "2024-03-25 22:39:36"}
{"id": "0x9931004c9734630xe3282cb47d17d84a", "name": "Pousada Bela Vista", "address": "Av. Expedicionário Osvaldo de Almeida Ramos, 875 - Residência", "city_province": "Vassouras - RJ", "zip_code": "27700-000", "type": ["Apart hotel"], "longitude": -43.6686195, "latitude": -22.413588999999998, "phone": "+55 24 2471-1590", "link": "https://www.google.com/maps/place/Pousada+Bela+Vista/data=!4m2!3m1!1s0x9931004c973463:0xe3282cb47d17d84a!10m1!1e1", "datetime": "2024-03-25 22:39:43"}
{"id": "0x9936d545ab8ea90xfc137fd21b03c75f", "name": "Pousada Veredas", "address": "BR-393, km 236 - Santa Amalia", "city_province": "Vassouras - RJ", "zip_code": "27700-000", "type": ["Cama e café"], "longitude": -43.677190499999995, "latitude": -22.4151037, "phone": "+55 24 2471-3350", "link": "https://www.google.com/maps/place/Pousada+Veredas/data=!4m2!3m1!1s0x9936d545ab8ea9:0xfc137fd21b03c75f!10m1!1e1", "datetime": "2024-03-25 22:39:49"}
{"id": "0x9930cc17780c6b0xacb3b46ec876fc4b", "name": "Hospedagem Helga Ferreira", "address": "Estrada Da Fazenda Serra Grande, 352", "city_province": "Vassouras - RJ", "zip_code": "27700-000", "type": ["Hotel"], "longitude": -43.6625856, "latitude": -22.4153301, "phone": "+55 24 2471-1490", "link": "https://www.google.com/maps/place/Hospedagem+Helga+Ferreira/data=!4m2!3m1!1s0x9930cc17780c6b:0xacb3b46ec876fc4b!10m1!1e1", "datetime": "2024-03-25 22:39:55"}
{"id": "0x99315affba93c10xe664046b1e5edad2", "name": "Sítio Paraíso", "address": "BR-393, Km 241 - Vassouras", "city_province": "RJ", "zip_code": "27700-000", "type": ["Hospedaria"], "longitude": -43.7137429, "latitude": -22.425111899999997, "phone": "+55 24 97401-6262", "link": "https://www.google.com/maps/place/S%C3%ADtio+Para%C3%ADso/data=!4m2!3m1!1s0x99315affba93c1:0xe664046b1e5edad2!10m1!1e1", "datetime": "2024-03-25 22:40:01"}
